{"Common":{"CustomerAfftectedCount":2,"OutageCount":1,"LastUpdatedDatetime":"04/22 08:24 AM"},"CustomerProfile":null,"PseMap":[{"DataProvider":{"Attributes":[{"Name":"Start time","Value":"04/19 12:47 PM","NoDisplay":false},{"Name":"Customers impacted","Value":"2","NoDisplay":false},{"Name":"Status","Value":"Repair crew onsite","NoDisplay":false},{"Name":"Cause","Value":"Scheduled Outage","NoDisplay":false},{"Name":"Last update","Value":"04/22 08:20 AM","NoDisplay":false}],"PointOfInterest":{"Latitude":"46.92700","Longitude":"-120.44911","MapType":"Outage","PinType":"Outage","Title":"Ellensburg","Id":"948565","PlannedOutage":true}},"Polygon":[{"Latitude":"46.92528","Longitude":"-120.44775"},{"Latitude":"46.92776","Longitude":"-120.45044"},{"Latitude":"46.92783","Longitude":"-120.45040"},{"Latitude":"46.92795","Longitude":"-120.44926"},{"Latitude":"46.92793","Longitude":"-120.44919"},{"Latitude":"46.92533","Longitude":"-120.44764"},{"Latitude":"46.92528","Longitude":"-120.44775"}],"BoundingBox":{"Min":{"Latitude":"46.92528","Longitude":"-120.45044"},"Max":{"Latitude":"46.92795","Longitude":"-120.44764"}}}],"LastUpdated":"2024-04-22T15:24:11+00:00"}